[{"name": "Afghanistan", "longitude": 67.709953, "latitude": 33.93911, "happiness": 2.436034441}, {"name": "Albania", "longitude": 20.168331, "latitude": 41.153332, "happiness": 5.25548172}, {"name": "Algeria", "longitude": 1.659626, "latitude": 28.033886, "happiness": 5.217017651}, {"name": "Argentina", "longitude": -63.616672, "latitude": -38.416097, "happiness": 5.908278942}, {"name": "Armenia", "longitude": 45.038189, "latitude": 40.069099, "happiness": 5.300568581}, {"name": "Australia", "longitude": 133.775136, "latitude": -25.274398, "happiness": 7.111598969}, {"name": "Austria", "longitude": 14.550072, "latitude": 47.516231, "happiness": 7.079640865}, {"name": "Bangladesh", "longitude": 90.356331, "latitude": 23.684994, "happiness": 4.123318672}, {"name": "Belgium", "longitude": 4.469936, "latitude": 50.503887, "happiness": 6.881756306}, {"name": "Benin", "longitude": 2.315834, "latitude": 9.30769, "happiness": 4.493431091}, {"name": "Bolivia", "longitude": -63.588653, "latitude": -16.290154, "happiness": 5.56862402}, {"name": "Bosnia and Herzegovina", "longitude": 17.679076, "latitude": 43.915886, "happiness": 5.748823166}, {"name": "Brazil", "longitude": -51.92528, "latitude": -14.235004, "happiness": 6.009953499}, {"name": "Bulgaria", "longitude": 25.48583, "latitude": 42.733883, "happiness": 5.421693325}, {"name": "Burkina Faso", "longitude": -1.561593, "latitude": 12.238333, "happiness": 4.635508537}, {"name": "Cambodia", "longitude": 104.990963, "latitude": 12.565679, "happiness": 4.555141449}, {"name": "Cameroon", "longitude": 12.354722, "latitude": 7.369722, "happiness": 4.962747574}, {"name": "Canada", "longitude": -106.346771, "latitude": 56.130366, "happiness": 6.939435482}, {"name": "Chile", "longitude": -71.542969, "latitude": -35.675147, "happiness": 6.435630798}, {"name": "China", "longitude": 104.195397, "latitude": 35.86166, "happiness": 5.862864494}, {"name": "Colombia", "longitude": -74.297333, "latitude": 4.570868, "happiness": 5.289958477}, {"name": "Costa Rica", "longitude": -83.753428, "latitude": 9.748917, "happiness": 6.408448219}, {"name": "Croatia", "longitude": 15.2, "latitude": 45.1, "happiness": 6.286790371}, {"name": "Cyprus", "longitude": 33.429859, "latitude": 35.126413, "happiness": 6.269202232}, {"name": "Denmark", "longitude": 9.501785, "latitude": 56.26392, "happiness": 7.698747158}, {"name": "Dominican Republic", "longitude": -70.162651, "latitude": 18.735693, "happiness": 6.030537128}, {"name": "Ecuador", "longitude": -78.183406, "latitude": -1.831239, "happiness": 5.43487215}, {"name": "Egypt", "longitude": 30.802498, "latitude": 26.820553, "happiness": 4.025747776}, {"name": "El Salvador", "longitude": -88.89653, "latitude": 13.794185, "happiness": 6.431447029}, {"name": "Estonia", "longitude": 25.013607, "latitude": 58.595272, "happiness": 6.553915501}, {"name": "Finland", "longitude": 25.748151, "latitude": 61.92411, "happiness": 7.794377804}, {"name": "France", "longitude": 2.213749, "latitude": 46.227638, "happiness": 6.656206608}, {"name": "Gabon", "longitude": 11.609444, "latitude": -0.803689, "happiness": 5.075422287}, {"name": "Georgia", "longitude": 43.356892, "latitude": 42.315407, "happiness": 4.911273479}, {"name": "Germany", "longitude": 10.451526, "latitude": 51.165691, "happiness": 6.754523754}, {"name": "Ghana", "longitude": -1.023194, "latitude": 7.946527, "happiness": 4.377950668}, {"name": "Greece", "longitude": 21.824312, "latitude": 39.074208, "happiness": 6.104214191}, {"name": "Guinea", "longitude": -9.696645, "latitude": 9.945587, "happiness": 4.944539547}, {"name": "Honduras", "longitude": -86.241905, "latitude": 15.199999, "happiness": 6.113636017}, {"name": "Hungary", "longitude": 19.503304, "latitude": 47.162494, "happiness": 6.226647854}, {"name": "Iceland", "longitude": -19.020835, "latitude": 64.963051, "happiness": 7.564624786}, {"name": "India", "longitude": 78.96288, "latitude": 20.593684, "happiness": 3.558253765}, {"name": "Indonesia", "longitude": 113.921327, "latitude": -0.789275, "happiness": 5.43317318}, {"name": "Iran", "longitude": 53.688046, "latitude": 32.427908, "happiness": 4.78781414}, {"name": "Iraq", "longitude": 43.679291, "latitude": 33.223191, "happiness": 5.093667984}, {"name": "Ireland", "longitude": -8.24389, "latitude": 53.41291, "happiness": 6.827651978}, {"name": "Israel", "longitude": 34.851612, "latitude": 31.046051, "happiness": 7.577528}, {"name": "Italy", "longitude": 12.56738, "latitude": 41.87194, "happiness": 6.4667449}, {"name": "Jamaica", "longitude": -77.297508, "latitude": 18.109581, "happiness": 5.813733578}, {"name": "Japan", "longitude": 138.252924, "latitude": 36.204824, "happiness": 6.091324806}, {"name": "Jordan", "longitude": 36.238414, "latitude": 30.585164, "happiness": 3.90914917}, {"name": "Kazakhstan", "longitude": 66.923684, "latitude": 48.019573, "happiness": 6.259634018}, {"name": "Kenya", "longitude": 37.906193, "latitude": -0.023559, "happiness": 4.464540958}, {"name": "Kosovo", "longitude": 20.902977, "latitude": 42.602636, "happiness": 6.648499489}, {"name": "Kyrgyzstan", "longitude": 74.766098, "latitude": 41.20438, "happiness": 5.563699722}, {"name": "Laos", "longitude": 102.495496, "latitude": 19.85627, "happiness": 4.926521778}, {"name": "Latvia", "longitude": 24.603189, "latitude": 56.879635, "happiness": 6.353090763}, {"name": "Lebanon", "longitude": 35.862285, "latitude": 33.854721, "happiness": 2.178809404}, {"name": "Lithuania", "longitude": 23.881275, "latitude": 55.169438, "happiness": 6.864572525}, {"name": "Malawi", "longitude": 34.301525, "latitude": -13.254308, "happiness": 3.635283232}, {"name": "Malaysia", "longitude": 101.975766, "latitude": 4.210484, "happiness": 6.010391712}, {"name": "Mali", "longitude": -3.996166, "latitude": 17.570692, "happiness": 4.11309576}, {"name": "Malta", "longitude": 14.375416, "latitude": 35.937496, "happiness": 6.443715096}, {"name": "Mauritius", "longitude": 57.552152, "latitude": -20.348404, "happiness": 5.949120045}, {"name": "Mexico", "longitude": -102.552784, "latitude": 23.634501, "happiness": 5.99075079}, {"name": "Moldova", "longitude": 28.369885, "latitude": 47.411631, "happiness": 5.959048748}, {"name": "Mongolia", "longitude": 103.846656, "latitude": 46.862496, "happiness": 5.72103405}, {"name": "Morocco", "longitude": -7.09262, "latitude": 31.791702, "happiness": 5.326248646}, {"name": "Mozambique", "longitude": 35.529562, "latitude": -18.665695, "happiness": 5.178486824}, {"name": "Namibia", "longitude": 18.49041, "latitude": -22.95764, "happiness": 4.491207123}, {"name": "Nepal", "longitude": 84.124008, "latitude": 28.394857, "happiness": 4.622300148}, {"name": "Netherlands", "longitude": 5.291266, "latitude": 52.132633, "happiness": 7.314151287}, {"name": "New Zealand", "longitude": 174.885971, "latitude": -40.900557, "happiness": 7.13670063}, {"name": "Nicaragua", "longitude": -85.207229, "latitude": 12.865416, "happiness": 6.095348835}, {"name": "Nigeria", "longitude": 8.675277, "latitude": 9.081999, "happiness": 4.47926569}, {"name": "Norway", "longitude": 8.468946, "latitude": 60.472024, "happiness": 7.361573696}, {"name": "Pakistan", "longitude": 69.345116, "latitude": 30.375321, "happiness": 4.486834526}, {"name": "Panama", "longitude": -80.782127, "latitude": 8.537981, "happiness": 6.552778721}, {"name": "Paraguay", "longitude": -58.443832, "latitude": -23.442503, "happiness": 5.575535297}, {"name": "Peru", "longitude": -75.015152, "latitude": -9.189967, "happiness": 5.694317818}, {"name": "Philippines", "longitude": 121.774017, "latitude": 12.879721, "happiness": 5.96505785}, {"name": "Poland", "longitude": 19.145136, "latitude": 51.919438, "happiness": 5.978068829}, {"name": "Portugal", "longitude": -8.224454, "latitude": 39.399872, "happiness": 6.183014393}, {"name": "Romania", "longitude": 24.96676, "latitude": 45.943161, "happiness": 6.548725605}, {"name": "Russia", "longitude": 105.318756, "latitude": 61.52401, "happiness": 5.448261261}, {"name": "Saudi Arabia", "longitude": 45.079162, "latitude": 23.885942, "happiness": 6.44529438}, {"name": "Senegal", "longitude": -14.452362, "latitude": 14.497401, "happiness": 4.902830601}, {"name": "Serbia", "longitude": 21.005859, "latitude": 44.016521, "happiness": 6.245267391}, {"name": "Sierra Leone", "longitude": -11.779889, "latitude": 8.460555, "happiness": 3.714294434}, {"name": "Singapore", "longitude": 103.819836, "latitude": 1.352083, "happiness": 6.586717129}, {"name": "Slovakia", "longitude": 19.699024, "latitude": 48.669026, "happiness": 6.418503761}, {"name": "Slovenia", "longitude": 14.995463, "latitude": 46.151241, "happiness": 6.761220932}, {"name": "South Africa", "longitude": 22.937506, "latitude": -30.559482, "happiness": 5.598653793}, {"name": "South Korea", "longitude": 127.766922, "latitude": 35.907757, "happiness": 6.112745285}, {"name": "Spain", "longitude": -3.74922, "latitude": 40.463667, "happiness": 6.469611168}, {"name": "Sri Lanka", "longitude": 80.771797, "latitude": 7.873054, "happiness": 4.10344696}, {"name": "Sweden", "longitude": 18.643501, "latitude": 60.128161, "happiness": 7.439280033}, {"name": "Switzerland", "longitude": 8.227512, "latitude": 46.818188, "happiness": 7.327672482}, {"name": "Tajikistan", "longitude": 71.276093, "latitude": 38.861034, "happiness": 5.286824226}, {"name": "Tanzania", "longitude": 34.888822, "latitude": -6.369028, "happiness": 3.68056798}, {"name": "Thailand", "longitude": 100.992541, "latitude": 15.870032, "happiness": 5.638096809}, {"name": "Togo", "longitude": 0.824782, "latitude": 8.619543, "happiness": 4.036543846}, {"name": "Tunisia", "longitude": 9.537499, "latitude": 33.886917, "happiness": 4.49948597}, {"name": "Uganda", "longitude": 32.290275, "latitude": 1.373333, "happiness": 4.224533558}, {"name": "Ukraine", "longitude": 31.16558, "latitude": 48.379433, "happiness": 5.311355114}, {"name": "United Arab Emirates", "longitude": 53.847818, "latitude": 23.424076, "happiness": 6.733067513}, {"name": "United Kingdom", "longitude": -3.435973, "latitude": 55.378051, "happiness": 6.866961956}, {"name": "United States", "longitude": -95.712891, "latitude": 37.09024, "happiness": 6.959087849}, {"name": "Uruguay", "longitude": -55.765835, "latitude": -32.522779, "happiness": 6.501700401}, {"name": "Uzbekistan", "longitude": 64.585262, "latitude": 41.377491, "happiness": 6.18530798}, {"name": "Venezuela", "longitude": -66.58973, "latitude": 6.42375, "happiness": 5.107553005}, {"name": "Vietnam", "longitude": 108.277199, "latitude": 14.058324, "happiness": 5.540249825}, {"name": "Zambia", "longitude": 27.849332, "latitude": -13.133897, "happiness": 3.082154989}, {"name": "Zimbabwe", "longitude": 29.154857, "latitude": -19.015438, "happiness": 3.154578209}]