[{"name": "Afghanistan", "longitude": 67.709953, "latitude": 33.93911, "happiness": 4.75838089}, {"name": "Albania", "longitude": 20.168331, "latitude": 41.153332, "happiness": 5.268936634}, {"name": "Algeria", "longitude": 1.659626, "latitude": 28.033886, "happiness": 5.46356678}, {"name": "Argentina", "longitude": -63.616672, "latitude": -38.416097, "happiness": 6.441067219}, {"name": "Armenia", "longitude": 45.038189, "latitude": 40.069099, "happiness": 4.367811203}, {"name": "Australia", "longitude": 133.775136, "latitude": -25.274398, "happiness": 7.450047016}, {"name": "Austria", "longitude": 14.550072, "latitude": 47.516231, "happiness": 7.302678585}, {"name": "Azerbaijan", "longitude": 47.576927, "latitude": 40.143105, "happiness": 4.218610764}, {"name": "Bahrain", "longitude": 50.637772, "latitude": 25.930414, "happiness": 5.936869144}, {"name": "Bangladesh", "longitude": 90.356331, "latitude": 23.684994, "happiness": 4.858481407}, {"name": "Belarus", "longitude": 27.953389, "latitude": 53.709807, "happiness": 5.525923252}, {"name": "Belgium", "longitude": 4.469936, "latitude": 50.503887, "happiness": 6.853514194}, {"name": "Bolivia", "longitude": -63.588653, "latitude": -16.290154, "happiness": 5.780620098}, {"name": "Bosnia and Herzegovina", "longitude": 17.679076, "latitude": 43.915886, "happiness": 4.66851759}, {"name": "Botswana", "longitude": 24.684866, "latitude": -22.328474, "happiness": 3.553020239}, {"name": "Brazil", "longitude": -51.92528, "latitude": -14.235004, "happiness": 6.837331295}, {"name": "Bulgaria", "longitude": 25.48583, "latitude": 42.733883, "happiness": 3.912276268}, {"name": "Burkina Faso", "longitude": -1.561593, "latitude": 12.238333, "happiness": 4.035560608}, {"name": "Cambodia", "longitude": 104.990963, "latitude": 12.565679, "happiness": 4.141072273}, {"name": "Cameroon", "longitude": 12.354722, "latitude": 7.369722, "happiness": 4.554256916}, {"name": "Canada", "longitude": -106.346771, "latitude": 56.130366, "happiness": 7.650346279}, {"name": "Central African Republic", "longitude": 20.939444, "latitude": 6.611111, "happiness": 3.567892551}, {"name": "Chad", "longitude": 18.732207, "latitude": 15.454166, "happiness": 3.742871046}, {"name": "Chile", "longitude": -71.542969, "latitude": -35.675147, "happiness": 6.63565588}, {"name": "China", "longitude": 104.195397, "latitude": 35.86166, "happiness": 4.652736664}, {"name": "Colombia", "longitude": -74.297333, "latitude": 4.570868, "happiness": 6.40811348}, {"name": "Comoros", "longitude": 43.872219, "latitude": -11.875001, "happiness": 3.81219101}, {"name": "Costa Rica", "longitude": -83.753428, "latitude": 9.748917, "happiness": 7.271053791}, {"name": "Croatia", "longitude": 15.2, "latitude": 45.1, "happiness": 5.595575333}, {"name": "Cyprus", "longitude": 33.429859, "latitude": 35.126413, "happiness": 6.386546135}, {"name": "Denmark", "longitude": 9.501785, "latitude": 56.26392, "happiness": 7.770515442}, {"name": "Djibouti", "longitude": 42.590275, "latitude": 11.825138, "happiness": 5.005810738}, {"name": "Dominican Republic", "longitude": -70.162651, "latitude": 18.735693, "happiness": 4.735021114}, {"name": "Ecuador", "longitude": -78.183406, "latitude": -1.831239, "happiness": 5.838051319}, {"name": "Egypt", "longitude": 30.802498, "latitude": 26.820553, "happiness": 4.668916225}, {"name": "El Salvador", "longitude": -88.89653, "latitude": 13.794185, "happiness": 6.739911079}, {"name": "Finland", "longitude": 25.748151, "latitude": 61.92411, "happiness": 7.393264294}, {"name": "France", "longitude": 2.213749, "latitude": 46.227638, "happiness": 6.797901154}, {"name": "Georgia", "longitude": 43.356892, "latitude": 42.315407, "happiness": 4.101837158}, {"name": "Germany", "longitude": 10.451526, "latitude": 51.165691, "happiness": 6.724531174}, {"name": "Ghana", "longitude": -1.023194, "latitude": 7.946527, "happiness": 4.606251717}, {"name": "Greece", "longitude": 21.824312, "latitude": 39.074208, "happiness": 5.839558601}, {"name": "Guatemala", "longitude": -90.230759, "latitude": 15.783471, "happiness": 6.289748669}, {"name": "Haiti", "longitude": -72.285215, "latitude": 18.971187, "happiness": 3.76599884}, {"name": "Honduras", "longitude": -86.241905, "latitude": 15.199999, "happiness": 5.866131306}, {"name": "Hungary", "longitude": 19.503304, "latitude": 47.162494, "happiness": 4.725132465}, {"name": "India", "longitude": 78.96288, "latitude": 20.593684, "happiness": 4.989277363}, {"name": "Indonesia", "longitude": 113.921327, "latitude": -0.789275, "happiness": 5.457299232}, {"name": "Iraq", "longitude": 43.679291, "latitude": 33.223191, "happiness": 5.065462112}, {"name": "Ireland", "longitude": -8.24389, "latitude": 53.41291, "happiness": 7.257389545}, {"name": "Israel", "longitude": 34.851612, "latitude": 31.046051, "happiness": 7.358916283}, {"name": "Italy", "longitude": 12.56738, "latitude": 41.87194, "happiness": 6.354238033}, {"name": "Japan", "longitude": 138.252924, "latitude": 36.204824, "happiness": 6.056752682}, {"name": "Jordan", "longitude": 36.238414, "latitude": 30.585164, "happiness": 5.569942474}, {"name": "Kazakhstan", "longitude": 66.923684, "latitude": 48.019573, "happiness": 5.514286518}, {"name": "Kenya", "longitude": 37.906193, "latitude": -0.023559, "happiness": 4.255859375}, {"name": "Kosovo", "longitude": 20.902977, "latitude": 42.602636, "happiness": 5.17660141}, {"name": "Kuwait", "longitude": 47.481766, "latitude": 29.31166, "happiness": 6.798151016}, {"name": "Kyrgyzstan", "longitude": 74.766098, "latitude": 41.20438, "happiness": 4.996410847}, {"name": "Lebanon", "longitude": 35.862285, "latitude": 33.854721, "happiness": 5.031899452}, {"name": "Liberia", "longitude": -9.429499, "latitude": 6.428055, "happiness": 4.196063042}, {"name": "Lithuania", "longitude": 23.881275, "latitude": 55.169438, "happiness": 5.065824986}, {"name": "Luxembourg", "longitude": 6.129583, "latitude": 49.815273, "happiness": 7.097251892}, {"name": "Malaysia", "longitude": 101.975766, "latitude": 4.210484, "happiness": 5.580281734}, {"name": "Mali", "longitude": -3.996166, "latitude": 17.570692, "happiness": 3.762305021}, {"name": "Malta", "longitude": 14.375416, "latitude": 35.937496, "happiness": 5.77387476}, {"name": "Mauritania", "longitude": -10.940835, "latitude": 21.00789, "happiness": 4.772306919}, {"name": "Mexico", "longitude": -102.552784, "latitude": 23.634501, "happiness": 6.802388668}, {"name": "Moldova", "longitude": 28.369885, "latitude": 47.411631, "happiness": 5.589736462}, {"name": "Mongolia", "longitude": 103.846656, "latitude": 46.862496, "happiness": 4.585523605}, {"name": "Montenegro", "longitude": 19.37439, "latitude": 42.708678, "happiness": 5.455030441}, {"name": "Morocco", "longitude": -7.09262, "latitude": 31.791702, "happiness": 4.383247375}, {"name": "Nepal", "longitude": 84.124008, "latitude": 28.394857, "happiness": 4.349675179}, {"name": "Netherlands", "longitude": 5.291266, "latitude": 52.132633, "happiness": 7.501875877}, {"name": "New Zealand", "longitude": 174.885971, "latitude": -40.900557, "happiness": 7.223756313}, {"name": "Nicaragua", "longitude": -85.207229, "latitude": 12.865416, "happiness": 5.68669939}, {"name": "Niger", "longitude": 8.081666, "latitude": 17.607789, "happiness": 4.101016045}, {"name": "Nigeria", "longitude": 8.675277, "latitude": 9.081999, "happiness": 4.760275841}, {"name": "Pakistan", "longitude": 69.345116, "latitude": 30.375321, "happiness": 5.786132813}, {"name": "Panama", "longitude": -80.782127, "latitude": 8.537981, "happiness": 7.3214674}, {"name": "Paraguay", "longitude": -58.443832, "latitude": -23.442503, "happiness": 5.841174126}, {"name": "Peru", "longitude": -75.015152, "latitude": -9.189967, "happiness": 5.612785339}, {"name": "Philippines", "longitude": 121.774017, "latitude": 12.879721, "happiness": 4.941514015}, {"name": "Poland", "longitude": 19.145136, "latitude": 51.919438, "happiness": 5.887029648}, {"name": "Portugal", "longitude": -8.224454, "latitude": 39.399872, "happiness": 5.094525814}, {"name": "Qatar", "longitude": 51.183884, "latitude": 25.354826, "happiness": 6.849652767}, {"name": "Romania", "longitude": 24.96676, "latitude": 45.943161, "happiness": 4.909165859}, {"name": "Russia", "longitude": 105.318756, "latitude": 61.52401, "happiness": 5.384773254}, {"name": "Saudi Arabia", "longitude": 45.079162, "latitude": 23.885942, "happiness": 6.307098389}, {"name": "Senegal", "longitude": -14.452362, "latitude": 14.497401, "happiness": 4.372156143}, {"name": "Serbia", "longitude": 21.005859, "latitude": 44.016521, "happiness": 4.461304188}, {"name": "Sierra Leone", "longitude": -11.779889, "latitude": 8.460555, "happiness": 4.133955956}, {"name": "Singapore", "longitude": 103.819836, "latitude": 1.352083, "happiness": 6.531401634}, {"name": "Slovakia", "longitude": 19.699024, "latitude": 48.669026, "happiness": 6.052223206}, {"name": "Slovenia", "longitude": 14.995463, "latitude": 46.151241, "happiness": 6.082555294}, {"name": "South Africa", "longitude": 22.937506, "latitude": -30.559482, "happiness": 4.652428627}, {"name": "South Korea", "longitude": 127.766922, "latitude": 35.907757, "happiness": 6.116024494}, {"name": "Spain", "longitude": -3.74922, "latitude": 40.463667, "happiness": 6.188262463}, {"name": "Sri Lanka", "longitude": 80.771797, "latitude": 7.873054, "happiness": 3.976905107}, {"name": "Sudan", "longitude": 30.217636, "latitude": 12.862807, "happiness": 4.435159683}, {"name": "Sweden", "longitude": 18.643501, "latitude": 60.128161, "happiness": 7.496018887}, {"name": "Syria", "longitude": 38.996815, "latitude": 34.802075, "happiness": 4.464707851}, {"name": "Tajikistan", "longitude": 71.276093, "latitude": 38.861034, "happiness": 4.380636215}, {"name": "Tanzania", "longitude": 34.888822, "latitude": -6.369028, "happiness": 3.229129076}, {"name": "Thailand", "longitude": 100.992541, "latitude": 15.870032, "happiness": 6.216702938}, {"name": "Tunisia", "longitude": 9.537499, "latitude": 33.886917, "happiness": 5.130520821}, {"name": "Uganda", "longitude": 32.290275, "latitude": 1.373333, "happiness": 4.192882061}, {"name": "Ukraine", "longitude": 31.16558, "latitude": 48.379433, "happiness": 5.057561398}, {"name": "United Arab Emirates", "longitude": 53.847818, "latitude": 23.424076, "happiness": 7.097455502}, {"name": "United Kingdom", "longitude": -3.435973, "latitude": 55.378051, "happiness": 7.029364109}, {"name": "United States", "longitude": -95.712891, "latitude": 37.09024, "happiness": 7.16361618}, {"name": "Uruguay", "longitude": -55.765835, "latitude": -32.522779, "happiness": 6.062010765}, {"name": "Uzbekistan", "longitude": 64.585262, "latitude": 41.377491, "happiness": 5.095342159}, {"name": "Venezuela", "longitude": -66.58973, "latitude": 6.42375, "happiness": 7.47845459}, {"name": "Vietnam", "longitude": 108.277199, "latitude": 14.058324, "happiness": 5.295780659}, {"name": "Yemen", "longitude": 48.516388, "latitude": 15.552727, "happiness": 4.35031271}, {"name": "Zimbabwe", "longitude": 29.154857, "latitude": -19.015438, "happiness": 4.681569576}]