[{"name": "Australia", "longitude": 133.775136, "latitude": -25.274398, "happiness": 7.340688229}, {"name": "Belgium", "longitude": 4.469936, "latitude": 50.503887, "happiness": 7.262290478}, {"name": "Brazil", "longitude": -51.92528, "latitude": -14.235004, "happiness": 6.636771202}, {"name": "Canada", "longitude": -106.346771, "latitude": 56.130366, "happiness": 7.418048382}, {"name": "Denmark", "longitude": 9.501785, "latitude": 56.26392, "happiness": 8.01893425}, {"name": "Egypt", "longitude": 30.802498, "latitude": 26.820553, "happiness": 5.167754173}, {"name": "France", "longitude": 2.213749, "latitude": 46.227638, "happiness": 7.093392849}, {"name": "Germany", "longitude": 10.451526, "latitude": 51.165691, "happiness": 6.619549751}, {"name": "Greece", "longitude": 21.824312, "latitude": 39.074208, "happiness": 6.006309986}, {"name": "Hungary", "longitude": 19.503304, "latitude": 47.162494, "happiness": 5.193933487}, {"name": "Iran", "longitude": 53.688046, "latitude": 32.427908, "happiness": 5.308190346}, {"name": "Italy", "longitude": 12.56738, "latitude": 41.87194, "happiness": 6.853783607}, {"name": "Japan", "longitude": 138.252924, "latitude": 36.204824, "happiness": 6.515817165}, {"name": "Jordan", "longitude": 36.238414, "latitude": 30.585164, "happiness": 6.294660091}, {"name": "Lebanon", "longitude": 35.862285, "latitude": 33.854721, "happiness": 5.49124527}, {"name": "Mexico", "longitude": -102.552784, "latitude": 23.634501, "happiness": 6.580657959}, {"name": "Netherlands", "longitude": 5.291266, "latitude": 52.132633, "happiness": 7.463979244}, {"name": "Pakistan", "longitude": 69.345116, "latitude": 30.375321, "happiness": 5.224657536}, {"name": "Poland", "longitude": 19.145136, "latitude": 51.919438, "happiness": 5.587209225}, {"name": "Romania", "longitude": 24.96676, "latitude": 45.943161, "happiness": 5.048648357}, {"name": "Saudi Arabia", "longitude": 45.079162, "latitude": 23.885942, "happiness": 7.079644203}, {"name": "Spain", "longitude": -3.74922, "latitude": 40.463667, "happiness": 7.152785778}, {"name": "Sweden", "longitude": 18.643501, "latitude": 60.128161, "happiness": 7.376315594}, {"name": "United Kingdom", "longitude": -3.435973, "latitude": 55.378051, "happiness": 6.983556747}, {"name": "Venezuela", "longitude": -66.58973, "latitude": 6.42375, "happiness": 7.169620991}]