[{"name": "Afghanistan", "longitude": 67.709953, "latitude": 33.93911, "happiness": 3.723589897}, {"name": "Argentina", "longitude": -63.616672, "latitude": -38.416097, "happiness": 5.961034298}, {"name": "Armenia", "longitude": 45.038189, "latitude": 40.069099, "happiness": 4.651972294}, {"name": "Australia", "longitude": 133.775136, "latitude": -25.274398, "happiness": 7.253757477}, {"name": "Austria", "longitude": 14.550072, "latitude": 47.516231, "happiness": 7.180953979}, {"name": "Azerbaijan", "longitude": 47.576927, "latitude": 40.143105, "happiness": 4.817189217}, {"name": "Bangladesh", "longitude": 90.356331, "latitude": 23.684994, "happiness": 5.052278519}, {"name": "Belarus", "longitude": 27.953389, "latitude": 53.709807, "happiness": 5.463332176}, {"name": "Belgium", "longitude": 4.469936, "latitude": 50.503887, "happiness": 7.116590977}, {"name": "Benin", "longitude": 2.315834, "latitude": 9.30769, "happiness": 3.66713953}, {"name": "Bolivia", "longitude": -63.588653, "latitude": -16.290154, "happiness": 5.297872543}, {"name": "Botswana", "longitude": 24.684866, "latitude": -22.328474, "happiness": 5.451147079}, {"name": "Brazil", "longitude": -51.92528, "latitude": -14.235004, "happiness": 6.691424847}, {"name": "Burkina Faso", "longitude": -1.561593, "latitude": 12.238333, "happiness": 3.846438885}, {"name": "Burundi", "longitude": 29.918886, "latitude": -3.373056, "happiness": 3.563227654}, {"name": "Cambodia", "longitude": 104.990963, "latitude": 12.565679, "happiness": 4.462163925}, {"name": "Cameroon", "longitude": 12.354722, "latitude": 7.369722, "happiness": 4.291800499}, {"name": "Canada", "longitude": -106.346771, "latitude": 56.130366, "happiness": 7.485603809}, {"name": "Chad", "longitude": 18.732207, "latitude": 15.454166, "happiness": 4.632468224}, {"name": "Chile", "longitude": -71.542969, "latitude": -35.675147, "happiness": 5.789438725}, {"name": "China", "longitude": 104.195397, "latitude": 35.86166, "happiness": 4.84629488}, {"name": "Colombia", "longitude": -74.297333, "latitude": 4.570868, "happiness": 6.168395042}, {"name": "Costa Rica", "longitude": -83.753428, "latitude": 9.748917, "happiness": 6.850679874}, {"name": "Denmark", "longitude": 9.501785, "latitude": 56.26392, "happiness": 7.970891953}, {"name": "Djibouti", "longitude": 42.590275, "latitude": 11.825138, "happiness": 5.009330273}, {"name": "Dominican Republic", "longitude": -70.162651, "latitude": 18.735693, "happiness": 4.84230566}, {"name": "Ecuador", "longitude": -78.183406, "latitude": -1.831239, "happiness": 5.296513081}, {"name": "Egypt", "longitude": 30.802498, "latitude": 26.820553, "happiness": 4.631741047}, {"name": "El Salvador", "longitude": -88.89653, "latitude": 13.794185, "happiness": 5.191493988}, {"name": "Estonia", "longitude": 25.013607, "latitude": 58.595272, "happiness": 5.451937675}, {"name": "Finland", "longitude": 25.748151, "latitude": 61.92411, "happiness": 7.67062664}, {"name": "France", "longitude": 2.213749, "latitude": 46.227638, "happiness": 7.008064747}, {"name": "Georgia", "longitude": 43.356892, "latitude": 42.315407, "happiness": 4.15609026}, {"name": "Germany", "longitude": 10.451526, "latitude": 51.165691, "happiness": 6.521790028}, {"name": "Ghana", "longitude": -1.023194, "latitude": 7.946527, "happiness": 4.965134621}, {"name": "Guatemala", "longitude": -90.230759, "latitude": 15.783471, "happiness": 6.414494514}, {"name": "Haiti", "longitude": -72.285215, "latitude": 18.971187, "happiness": 3.846329212}, {"name": "Honduras", "longitude": -86.241905, "latitude": 15.199999, "happiness": 5.420331001}, {"name": "Iceland", "longitude": -19.020835, "latitude": 64.963051, "happiness": 6.888284206}, {"name": "India", "longitude": 78.96288, "latitude": 20.593684, "happiness": 5.145833015}, {"name": "Indonesia", "longitude": 113.921327, "latitude": -0.789275, "happiness": 4.815309525}, {"name": "Iran", "longitude": 53.688046, "latitude": 32.427908, "happiness": 5.128988266}, {"name": "Iraq", "longitude": 43.679291, "latitude": 33.223191, "happiness": 4.589844704}, {"name": "Ireland", "longitude": -8.24389, "latitude": 53.41291, "happiness": 7.568029881}, {"name": "Israel", "longitude": 34.851612, "latitude": 31.046051, "happiness": 7.261261463}, {"name": "Italy", "longitude": 12.56738, "latitude": 41.87194, "happiness": 6.779774189}, {"name": "Japan", "longitude": 138.252924, "latitude": 36.204824, "happiness": 5.91067934}, {"name": "Jordan", "longitude": 36.238414, "latitude": 30.585164, "happiness": 4.930058002}, {"name": "Kazakhstan", "longitude": 66.923684, "latitude": 48.019573, "happiness": 5.886419773}, {"name": "Kenya", "longitude": 37.906193, "latitude": -0.023559, "happiness": 4.015274525}, {"name": "Kosovo", "longitude": 20.902977, "latitude": 42.602636, "happiness": 5.521659851}, {"name": "Kyrgyzstan", "longitude": 74.766098, "latitude": 41.20438, "happiness": 4.736588001}, {"name": "Laos", "longitude": 102.495496, "latitude": 19.85627, "happiness": 5.044098854}, {"name": "Latvia", "longitude": 24.603189, "latitude": 56.879635, "happiness": 5.145375252}, {"name": "Lebanon", "longitude": 35.862285, "latitude": 33.854721, "happiness": 4.594851017}, {"name": "Liberia", "longitude": -9.429499, "latitude": 6.428055, "happiness": 4.221354008}, {"name": "Lithuania", "longitude": 23.881275, "latitude": 55.169438, "happiness": 5.553925991}, {"name": "Madagascar", "longitude": 46.869107, "latitude": -18.766947, "happiness": 4.640079021}, {"name": "Malaysia", "longitude": 101.975766, "latitude": 4.210484, "happiness": 5.806781769}, {"name": "Mali", "longitude": -3.996166, "latitude": 17.570692, "happiness": 4.114664078}, {"name": "Mauritania", "longitude": -10.940835, "latitude": 21.00789, "happiness": 4.248075008}, {"name": "Mexico", "longitude": -102.552784, "latitude": 23.634501, "happiness": 6.829036236}, {"name": "Moldova", "longitude": 28.369885, "latitude": 47.411631, "happiness": 5.502756119}, {"name": "Mongolia", "longitude": 103.846656, "latitude": 46.862496, "happiness": 4.493010044}, {"name": "Mozambique", "longitude": 35.529562, "latitude": -18.665695, "happiness": 4.65358305}, {"name": "Nepal", "longitude": 84.124008, "latitude": 28.394857, "happiness": 4.440526485}, {"name": "Netherlands", "longitude": 5.291266, "latitude": 52.132633, "happiness": 7.631011963}, {"name": "New Zealand", "longitude": 174.885971, "latitude": -40.900557, "happiness": 7.38117075}, {"name": "Nicaragua", "longitude": -85.207229, "latitude": 12.865416, "happiness": 5.103827477}, {"name": "Niger", "longitude": 8.081666, "latitude": 17.607789, "happiness": 4.235657215}, {"name": "Nigeria", "longitude": 8.675277, "latitude": 9.081999, "happiness": 4.938560486}, {"name": "Norway", "longitude": 8.468946, "latitude": 60.472024, "happiness": 7.632287502}, {"name": "Pakistan", "longitude": 69.345116, "latitude": 30.375321, "happiness": 4.413918972}, {"name": "Panama", "longitude": -80.782127, "latitude": 8.537981, "happiness": 6.930903435}, {"name": "Paraguay", "longitude": -58.443832, "latitude": -23.442503, "happiness": 5.570061684}, {"name": "Peru", "longitude": -75.015152, "latitude": -9.189967, "happiness": 5.129230976}, {"name": "Philippines", "longitude": 121.774017, "latitude": 12.879721, "happiness": 4.589065075}, {"name": "Portugal", "longitude": -8.224454, "latitude": 39.399872, "happiness": 5.716966629}, {"name": "Russia", "longitude": 105.318756, "latitude": 61.52401, "happiness": 5.61875391}, {"name": "Rwanda", "longitude": 29.873888, "latitude": -1.940278, "happiness": 4.362988949}, {"name": "Saudi Arabia", "longitude": 45.079162, "latitude": 23.885942, "happiness": 6.811370373}, {"name": "Senegal", "longitude": -14.452362, "latitude": 14.497401, "happiness": 4.683499813}, {"name": "Sierra Leone", "longitude": -11.779889, "latitude": 8.460555, "happiness": 2.997251034}, {"name": "Singapore", "longitude": 103.819836, "latitude": 1.352083, "happiness": 6.641956806}, {"name": "South Africa", "longitude": 22.937506, "latitude": -30.559482, "happiness": 5.346306801}, {"name": "South Korea", "longitude": 127.766922, "latitude": 35.907757, "happiness": 5.389624596}, {"name": "Spain", "longitude": -3.74922, "latitude": 40.463667, "happiness": 7.294472694}, {"name": "Sri Lanka", "longitude": 80.771797, "latitude": 7.873054, "happiness": 4.430846214}, {"name": "Sweden", "longitude": 18.643501, "latitude": 60.128161, "happiness": 7.51599741}, {"name": "Syria", "longitude": 38.996815, "latitude": 34.802075, "happiness": 5.32333231}, {"name": "Tajikistan", "longitude": 71.276093, "latitude": 38.861034, "happiness": 5.063986778}, {"name": "Tanzania", "longitude": 34.888822, "latitude": -6.369028, "happiness": 4.384741783}, {"name": "Thailand", "longitude": 100.992541, "latitude": 15.870032, "happiness": 5.636471272}, {"name": "Togo", "longitude": 0.824782, "latitude": 8.619543, "happiness": 2.807855129}, {"name": "Trinidad and Tobago", "longitude": -61.222503, "latitude": 10.691803, "happiness": 6.696444035}, {"name": "Uganda", "longitude": 32.290275, "latitude": 1.373333, "happiness": 4.568619251}, {"name": "Ukraine", "longitude": 31.16558, "latitude": 48.379433, "happiness": 5.172380447}, {"name": "United Kingdom", "longitude": -3.435973, "latitude": 55.378051, "happiness": 6.986463547}, {"name": "United States", "longitude": -95.712891, "latitude": 37.09024, "happiness": 7.280385971}, {"name": "Uruguay", "longitude": -55.765835, "latitude": -32.522779, "happiness": 5.663869858}, {"name": "Uzbekistan", "longitude": 64.585262, "latitude": 41.377491, "happiness": 5.311368465}, {"name": "Venezuela", "longitude": -66.58973, "latitude": 6.42375, "happiness": 6.257771492}, {"name": "Vietnam", "longitude": 108.277199, "latitude": 14.058324, "happiness": 5.480425358}, {"name": "Zambia", "longitude": 27.849332, "latitude": -13.133897, "happiness": 4.730263233}, {"name": "Zimbabwe", "longitude": 29.154857, "latitude": -19.015438, "happiness": 3.174263716}]