[{"name": "Afghanistan", "longitude": 67.709953, "latitude": 33.93911, "happiness": 3.982854605}, {"name": "Albania", "longitude": 20.168331, "latitude": 41.153332, "happiness": 4.606650829}, {"name": "Argentina", "longitude": -63.616672, "latitude": -38.416097, "happiness": 6.69713068}, {"name": "Armenia", "longitude": 45.038189, "latitude": 40.069099, "happiness": 4.34831953}, {"name": "Australia", "longitude": 133.775136, "latitude": -25.274398, "happiness": 7.309060574}, {"name": "Austria", "longitude": 14.550072, "latitude": 47.516231, "happiness": 7.07644701}, {"name": "Azerbaijan", "longitude": 47.576927, "latitude": 40.143105, "happiness": 5.146774769}, {"name": "Bahrain", "longitude": 50.637772, "latitude": 25.930414, "happiness": 6.00737524}, {"name": "Bangladesh", "longitude": 90.356331, "latitude": 23.684994, "happiness": 4.633473873}, {"name": "Belarus", "longitude": 27.953389, "latitude": 53.709807, "happiness": 5.718907833}, {"name": "Belgium", "longitude": 4.469936, "latitude": 50.503887, "happiness": 6.904219151}, {"name": "Benin", "longitude": 2.315834, "latitude": 9.30769, "happiness": 3.624664307}, {"name": "Bhutan", "longitude": 90.433601, "latitude": 27.514162, "happiness": 5.082128525}, {"name": "Bolivia", "longitude": -63.588653, "latitude": -16.290154, "happiness": 5.834329128}, {"name": "Bosnia and Herzegovina", "longitude": 17.679076, "latitude": 43.915886, "happiness": 5.117177963}, {"name": "Botswana", "longitude": 24.684866, "latitude": -22.328474, "happiness": 3.761964798}, {"name": "Brazil", "longitude": -51.92528, "latitude": -14.235004, "happiness": 6.546896935}, {"name": "Bulgaria", "longitude": 25.48583, "latitude": 42.733883, "happiness": 4.865401268}, {"name": "Burkina Faso", "longitude": -1.561593, "latitude": 12.238333, "happiness": 4.418930054}, {"name": "Cambodia", "longitude": 104.990963, "latitude": 12.565679, "happiness": 4.162164688}, {"name": "Cameroon", "longitude": 12.354722, "latitude": 7.369722, "happiness": 5.037964821}, {"name": "Canada", "longitude": -106.346771, "latitude": 56.130366, "happiness": 7.412772655}, {"name": "Chad", "longitude": 18.732207, "latitude": 15.454166, "happiness": 4.322675228}, {"name": "Chile", "longitude": -71.542969, "latitude": -35.675147, "happiness": 6.532749653}, {"name": "China", "longitude": 104.195397, "latitude": 35.86166, "happiness": 5.303877831}, {"name": "Colombia", "longitude": -74.297333, "latitude": 4.570868, "happiness": 6.387571812}, {"name": "Costa Rica", "longitude": -83.753428, "latitude": 9.748917, "happiness": 6.854004383}, {"name": "Croatia", "longitude": 15.2, "latitude": 45.1, "happiness": 5.205438137}, {"name": "Cyprus", "longitude": 33.429859, "latitude": 35.126413, "happiness": 5.439161301}, {"name": "Denmark", "longitude": 9.501785, "latitude": 56.26392, "happiness": 7.514424801}, {"name": "Dominican Republic", "longitude": -70.162651, "latitude": 18.735693, "happiness": 5.061862469}, {"name": "Ecuador", "longitude": -78.183406, "latitude": -1.831239, "happiness": 5.964075089}, {"name": "Egypt", "longitude": 30.802498, "latitude": 26.820553, "happiness": 4.762538433}, {"name": "El Salvador", "longitude": -88.89653, "latitude": 13.794185, "happiness": 6.018496037}, {"name": "Estonia", "longitude": 25.013607, "latitude": 58.595272, "happiness": 5.628908634}, {"name": "Ethiopia", "longitude": 40.489673, "latitude": 9.145, "happiness": 4.573154926}, {"name": "Finland", "longitude": 25.748151, "latitude": 61.92411, "happiness": 7.447925568}, {"name": "France", "longitude": 2.213749, "latitude": 46.227638, "happiness": 6.357625008}, {"name": "Gabon", "longitude": 11.609444, "latitude": -0.803689, "happiness": 4.66101265}, {"name": "Georgia", "longitude": 43.356892, "latitude": 42.315407, "happiness": 4.121940613}, {"name": "Germany", "longitude": 10.451526, "latitude": 51.165691, "happiness": 7.037137508}, {"name": "Ghana", "longitude": -1.023194, "latitude": 7.946527, "happiness": 3.985916138}, {"name": "Greece", "longitude": 21.824312, "latitude": 39.074208, "happiness": 5.622519016}, {"name": "Guatemala", "longitude": -90.230759, "latitude": 15.783471, "happiness": 6.464986801}, {"name": "Guinea", "longitude": -9.696645, "latitude": 9.945587, "happiness": 3.504693508}, {"name": "Haiti", "longitude": -72.285215, "latitude": 18.971187, "happiness": 3.569762468}, {"name": "Honduras", "longitude": -86.241905, "latitude": 15.199999, "happiness": 4.845436573}, {"name": "Hungary", "longitude": 19.503304, "latitude": 47.162494, "happiness": 5.34438324}, {"name": "Iceland", "longitude": -19.020835, "latitude": 64.963051, "happiness": 7.498070717}, {"name": "India", "longitude": 78.96288, "latitude": 20.593684, "happiness": 4.342079163}, {"name": "Indonesia", "longitude": 113.921327, "latitude": -0.789275, "happiness": 5.04279995}, {"name": "Iran", "longitude": 53.688046, "latitude": 32.427908, "happiness": 4.749955654}, {"name": "Iraq", "longitude": 43.679291, "latitude": 33.223191, "happiness": 4.493377209}, {"name": "Ireland", "longitude": -8.24389, "latitude": 53.41291, "happiness": 6.830125332}, {"name": "Israel", "longitude": 34.851612, "latitude": 31.046051, "happiness": 7.07941103}, {"name": "Italy", "longitude": 12.56738, "latitude": 41.87194, "happiness": 5.847683907}, {"name": "Japan", "longitude": 138.252924, "latitude": 36.204824, "happiness": 5.879684448}, {"name": "Jordan", "longitude": 36.238414, "latitude": 30.585164, "happiness": 5.404593468}, {"name": "Kazakhstan", "longitude": 66.923684, "latitude": 48.019573, "happiness": 5.949995041}, {"name": "Kenya", "longitude": 37.906193, "latitude": -0.023559, "happiness": 4.357617855}, {"name": "Kosovo", "longitude": 20.902977, "latitude": 42.602636, "happiness": 5.077460766}, {"name": "Kuwait", "longitude": 47.481766, "latitude": 29.31166, "happiness": 6.146031857}, {"name": "Kyrgyzstan", "longitude": 74.766098, "latitude": 41.20438, "happiness": 4.905375957}, {"name": "Latvia", "longitude": 24.603189, "latitude": 56.879635, "happiness": 5.880597591}, {"name": "Lebanon", "longitude": 35.862285, "latitude": 33.854721, "happiness": 5.171971321}, {"name": "Liberia", "longitude": -9.429499, "latitude": 6.428055, "happiness": 2.701591253}, {"name": "Libya", "longitude": 17.228331, "latitude": 26.3351, "happiness": 5.615404606}, {"name": "Lithuania", "longitude": 23.881275, "latitude": 55.169438, "happiness": 5.711378098}, {"name": "Luxembourg", "longitude": 6.129583, "latitude": 49.815273, "happiness": 6.701571465}, {"name": "Madagascar", "longitude": 46.869107, "latitude": -18.766947, "happiness": 3.592514038}, {"name": "Malawi", "longitude": 34.301525, "latitude": -13.254308, "happiness": 3.86763835}, {"name": "Malaysia", "longitude": 101.975766, "latitude": 4.210484, "happiness": 6.322121143}, {"name": "Mali", "longitude": -3.996166, "latitude": 17.570692, "happiness": 4.582098484}, {"name": "Malta", "longitude": 14.375416, "latitude": 35.937496, "happiness": 6.61339426}, {"name": "Mauritania", "longitude": -10.940835, "latitude": 21.00789, "happiness": 3.922664165}, {"name": "Mexico", "longitude": -102.552784, "latitude": 23.634501, "happiness": 6.236287117}, {"name": "Moldova", "longitude": 28.369885, "latitude": 47.411631, "happiness": 6.017472267}, {"name": "Mongolia", "longitude": 103.846656, "latitude": 46.862496, "happiness": 4.982719898}, {"name": "Montenegro", "longitude": 19.37439, "latitude": 42.708678, "happiness": 5.124921322}, {"name": "Morocco", "longitude": -7.09262, "latitude": 31.791702, "happiness": 5.163156986}, {"name": "Mozambique", "longitude": 35.529562, "latitude": -18.665695, "happiness": 4.549767494}, {"name": "Nepal", "longitude": 84.124008, "latitude": 28.394857, "happiness": 4.812436581}, {"name": "Netherlands", "longitude": 5.291266, "latitude": 52.132633, "happiness": 7.324437141}, {"name": "New Zealand", "longitude": 174.885971, "latitude": -40.900557, "happiness": 7.418120861}, {"name": "Nicaragua", "longitude": -85.207229, "latitude": 12.865416, "happiness": 5.924112797}, {"name": "Niger", "longitude": 8.081666, "latitude": 17.607789, "happiness": 3.671453714}, {"name": "Nigeria", "longitude": 8.675277, "latitude": 9.081999, "happiness": 4.932914734}, {"name": "Norway", "longitude": 8.468946, "latitude": 60.472024, "happiness": 7.603433609}, {"name": "Pakistan", "longitude": 69.345116, "latitude": 30.375321, "happiness": 4.823194981}, {"name": "Panama", "longitude": -80.782127, "latitude": 8.537981, "happiness": 6.605550289}, {"name": "Paraguay", "longitude": -58.443832, "latitude": -23.442503, "happiness": 5.559724331}, {"name": "Peru", "longitude": -75.015152, "latitude": -9.189967, "happiness": 5.577263355}, {"name": "Philippines", "longitude": 121.774017, "latitude": 12.879721, "happiness": 5.547489166}, {"name": "Poland", "longitude": 19.145136, "latitude": 51.919438, "happiness": 6.007021904}, {"name": "Portugal", "longitude": -8.224454, "latitude": 39.399872, "happiness": 5.080866337}, {"name": "Qatar", "longitude": 51.183884, "latitude": 25.354826, "happiness": 6.374529362}, {"name": "Romania", "longitude": 24.96676, "latitude": 45.943161, "happiness": 5.777491093}, {"name": "Russia", "longitude": 105.318756, "latitude": 61.52401, "happiness": 5.995538712}, {"name": "Rwanda", "longitude": 29.873888, "latitude": -1.940278, "happiness": 3.483108997}, {"name": "Saudi Arabia", "longitude": 45.079162, "latitude": 23.885942, "happiness": 6.345491886}, {"name": "Senegal", "longitude": -14.452362, "latitude": 14.497401, "happiness": 4.61700058}, {"name": "Serbia", "longitude": 21.005859, "latitude": 44.016521, "happiness": 5.317685127}, {"name": "Sierra Leone", "longitude": -11.779889, "latitude": 8.460555, "happiness": 4.908617973}, {"name": "Singapore", "longitude": 103.819836, "latitude": 1.352083, "happiness": 6.619524956}, {"name": "Slovakia", "longitude": 19.699024, "latitude": 48.669026, "happiness": 6.162004471}, {"name": "Slovenia", "longitude": 14.995463, "latitude": 46.151241, "happiness": 5.740642071}, {"name": "Somalia", "longitude": 46.199616, "latitude": 5.152149, "happiness": 5.353644848}, {"name": "South Africa", "longitude": 22.937506, "latitude": -30.559482, "happiness": 4.887325764}, {"name": "South Korea", "longitude": 127.766922, "latitude": 35.907757, "happiness": 5.780211449}, {"name": "Spain", "longitude": -3.74922, "latitude": 40.463667, "happiness": 6.380663395}, {"name": "Sri Lanka", "longitude": 80.771797, "latitude": 7.873054, "happiness": 4.611606598}, {"name": "Sweden", "longitude": 18.643501, "latitude": 60.128161, "happiness": 7.28892231}, {"name": "Switzerland", "longitude": 8.227512, "latitude": 46.818188, "happiness": 7.572136879}, {"name": "Syria", "longitude": 38.996815, "latitude": 34.802075, "happiness": 3.46191287}, {"name": "Tajikistan", "longitude": 71.276093, "latitude": 38.861034, "happiness": 5.124210835}, {"name": "Tanzania", "longitude": 34.888822, "latitude": -6.369028, "happiness": 3.660597324}, {"name": "Thailand", "longitude": 100.992541, "latitude": 15.870032, "happiness": 6.201762676}, {"name": "Togo", "longitude": 0.824782, "latitude": 8.619543, "happiness": 3.768301964}, {"name": "Tunisia", "longitude": 9.537499, "latitude": 33.886917, "happiness": 5.131611824}, {"name": "Turkmenistan", "longitude": 59.556278, "latitude": 38.969719, "happiness": 5.791460037}, {"name": "Uganda", "longitude": 32.290275, "latitude": 1.373333, "happiness": 4.237686634}, {"name": "Ukraine", "longitude": 31.16558, "latitude": 48.379433, "happiness": 3.964542866}, {"name": "United Arab Emirates", "longitude": 53.847818, "latitude": 23.424076, "happiness": 6.568397522}, {"name": "United Kingdom", "longitude": -3.435973, "latitude": 55.378051, "happiness": 6.515445232}, {"name": "United States", "longitude": -95.712891, "latitude": 37.09024, "happiness": 6.863946915}, {"name": "Uruguay", "longitude": -55.765835, "latitude": -32.522779, "happiness": 6.628080368}, {"name": "Uzbekistan", "longitude": 64.585262, "latitude": 41.377491, "happiness": 5.972364426}, {"name": "Venezuela", "longitude": -66.58973, "latitude": 6.42375, "happiness": 5.568800449}, {"name": "Vietnam", "longitude": 108.277199, "latitude": 14.058324, "happiness": 5.076315403}, {"name": "Yemen", "longitude": 48.516388, "latitude": 15.552727, "happiness": 2.982673883}, {"name": "Zambia", "longitude": 27.849332, "latitude": -13.133897, "happiness": 4.843164444}, {"name": "Zimbabwe", "longitude": 29.154857, "latitude": -19.015438, "happiness": 3.70319128}]